Address,Latitude,Longitude
"Imperial Promenade,5675 E La Palma Avenue,Suite 185,Anaheim, CA 92807-2107,US",33.8609702,-117.7911424
"4509 Phoenix Avenue,Fort Smith, AR 72903-6005,US",35.3385547,-94.38318609999999
"3821 Lakewood Boulevard ,Ste. 101,Long Beach, CA 90808-1742,US",33.8285983,-118.1430346
"Station Park West,1060 West Park Lane,Suite 115,Farmington, UT 84025-2994,US",40.9834256,-111.9077938
"6095 Carlson Way,Suite B,Marion, IA 52302-6651,US",42.03650469999999,-91.5479151
"1940 S. Air Depot Blvd.,Midwest City, OK 73110-5522,US",35.4457129,-97.4055766
"2028 KY Route 53,Suite 7,LaGrange, KY 40031-9119,US",38.3936857,-85.3678817
"15810 Shawnee Mission Parkway,Shawnee, KS 66217-9326,US",39.0105566,-94.76984619999999
"17015 SE Sunnyside Rd,Happy Valley, OR 97015-8731,US",45.4270533,-122.4887019
"851 S. State Rd. 434,Suite 1020,Altamonte Springs, FL 32714-4812,US",28.6448731,-81.4118328
"20770 I-30,Suite 130,Benton, AR 72019-8827,US",34.6101638,-92.53255829999999
"Hamra Plaza,2504 NW Cache Road,Hamra Plaza,Lawton, OK 73505-5228,US",34.6035669,-98.39592909999999
"813 Boardman Poland Road,Boardman, OH 44512-5129,US",41.0235664,-80.6393685
"2485 Lineville Rd,Suite 104,Howard, WI 54313-7140,US",44.5905469,-88.08072500000002
"Mini City,4542 Capital Boulevard,Mini City,Raleigh, NC 27604-4353,US",35.8457239,-78.57891769999999
"260 South Fort Lane,Suite 104,Layton, UT 84041,US",41.0566621,-111.9580712
"10714 Broadway,Crown Point, IN 46307,US",41.4231723,-87.3362116
"1401 S 348th Street,Suite M105,Federal Way, WA 98003-6882,US",47.2890541,-122.3160501
"7050 West Palmetto Park Road,Suite 32,Boca Raton, FL 33433-3463,US",26.34795,-80.15765999999999
"143 SW Century Drive,Suite 100,Bend, OR 97702-1131,US",44.049346,-121.332108
"13878 Georgia Avenue,Aspen Hill, MD 20906-2924,US",39.0818874,-77.0777657
"215 Huttleston Ave,Fairhaven, MA 02719-1956,US",41.6399997,-70.8800236
"939 N Burkhardt Rd,Suite A,Evansville, IN 47715-2743,US",37.9852949,-87.47304989999999
"72 Newtown Road,Danbury, CT 06810-6254,US",41.4072533,-73.4186656
"Baywick Plaza ,333 Atlantic City Blvd.,Baywick Plaza,Bayville, NJ 08721-1262,US",39.9206093,-74.1595947
"Closed for Relocation..., ,Bronx, NUS",40.8447819,-73.8648268
"Cherokee Plaza Shopping Center,3895 Peachtree Road North East,Atlanta, GA 30319-3388,US",33.8564771,-84.34448669999999
"4670 Broadway Road,Suite A9,Allentown, PA 18104-3214,US",40.6022939,-75.4714098
"224 Bloomfield Avenue,Bloomfield, NJ 07003-5741,US",40.7815319,-74.1915636
"51 Topsham Fair Mall Road,Topsham, ME 04086,US",43.938024,-69.97946999999999
"21690 US Highway 59,Suite 200,New Caney, TX 77357,US",30.131278,-95.2306558
"2712 Hillsborough Street,Suite 100,Raleigh, NC 27607-7415,US",35.7889832,-78.6718606
"258 Route 12,Groton, CT 06340-3415,US",41.3695613,-72.07056539999999
"2041 North Squirrel Road,Unit 3,Auburn Hills, MI 48326-2350,US",42.6734222,-83.2213422
"5355 East Carefree Highway,Building B Suite 106,Cave Creek, AZ 85331-1004,US",33.7987633,-111.9663318
"869 Montauk Highway,Bayport, NY 11705-1613,US",40.748209,-73.04885209999999
"4075 Old Milton Pkwy.,Suite 6,Alpharetta, GA 30005-4405,US",34.0599323,-84.2422445
"3018 Cleveland Blvd.,Suite 103,Caldwell, ID 83605-6470,US",43.6476108,-116.6660518
"192 Asheville Hwy.,Suite F,Brevard, NC 28712,US",35.2453169,-82.7229967
"100 Ikebana Path,Suite F,Georgetown, KY 40324-8502,US",38.2305546,-84.53290849999999
"Peak Plaza,1761 Highway 55,Apex, NC 27523,US",35.7598726,-78.8771493
"232 Eastgate Drive,Aiken, SC 29803-7683,US",33.512101,-81.71586359999999
"1918 North Rock Road,Suite 800,Derby, KS 67037-3779,US",37.56775,-97.2436194
"1531 West Main Street,Bozeman, MT 59715-4000,US",45.6797246,-111.0582601
"1100 Brighton Avenue,Portland, ME 04102-1057,US",43.6751784,-70.3251684
"3500 Dodge Street,Suite 130,Dubuque, IA 52003-5214,US",42.4900326,-90.7215452
"2271 Pointe Parkway,Carmel, IN 46032-3284,US",39.95551,-86.11764509999999
"2809 E. University Ave,Des Moines, IA 50317,US",41.6002276,-93.5628771
"7118 FM 1960 E,Atascocita, TX 77346-2702,US",29.9976132,-95.169631
"1515 N Town East Blvd.,Suite 120,Mesquite, TX 75150-4170,US",32.8117884,-96.61786839999999
"1120 East Oak Street,Suite 102,Conway, AR 72032-4727,US",35.0922,-92.41384
"6176 Falls of Neuse Road,Suite 104,Raleigh, NC 27609-3528,US",35.866608,-78.620254
"2681 East Sunnyside Road,Suite E,Ammon, ID 83406,US",43.46820899999999,-111.9802752
"737 N Academy Blvd,Colorado Springs, CO 80909-8306,US",38.8427621,-104.756606
"3319 N. Main Street,Suite D,Anderson, SC 29621-4113,US",34.5426402,-82.6691876
"801 E. 13th Avenue,Eugene, OR 97401-3788,US",44.0456979,-123.0799322
"845 West Main Street,Branford, CT 06405-3413,US",41.2760501,-72.8372845
"203 West Madison Ave.,Suite D,Belgrade, MT 59714-3959,US",45.7738338,-111.1834685
"50 Summit Drive,Burlington, MA 01803-0009,US",42.4762824,-71.2146097
"503 N Navy Blvd.,Unit D,Pensacola, FL 32507-2011,US",30.3970246,-87.2784444
"71-C Jefferson Crossing Way,Charles Town, WV 25414-4931,US",39.2994178,-77.8440151
"24830 S Tamiami Trail,Bonita Springs, FL 34134-7033,US",26.3790094,-81.8086867
"Corner of Manchaca and South Lamar,3005 South Lamar Blvd.,Suite D-111,Austin, TX 78704-8864,US",30.24129589999999,-97.7836964
"14203 Edgewood Drive,Suite B-2,Baxter, MN 56425-6101,US",46.3582074,-94.24538799999999
"3510 Pentagon Blvd,Beavercreek, OH 45431-2781,US",39.7721982,-84.0608041
"7959 Blue Diamond Rd,Suite 102,Las Vegas, NV 89178-9351,US",36.0195681,-115.2645422
"1341 Parkwood Road,Suite 103,Asheville, NC 28806-8703,US",35.582867,-82.603477
"2564 North Greenwich Road,Suite 550,Wichita, KS 67226-8276,US",37.7288339,-97.20701369999999
"7976 Honeygo Blvd.,Baltimore, MD 21236-4919,US",39.3737362,-76.4721361
"133 Cook Street,Abingdon, VA 24210-3203,US",36.703543,-81.9712727
"9220 Metcalf Avenue,Overland Park, KS 66212-1476,US",38.9616165,-94.66886989999999
"613 South Highline Place,Sioux Falls, SD 57110-3069,US",43.5425109,-96.65536739999999
"290 South Rockwood Drive,Suite F,Cabot, AR 72023-2846,US",34.9777917,-92.0380107
"315 Main Street,Suite 200,Billings, MT 59105-3265,US",45.8042095,-108.4764405
"2080 South Milton Road,Suite 400,Flagstaff, AZ 86001-6383,US",35.1796198,-111.6606926
"2051 Monroe Street ,Corvallis, OR 97330-5577,US",44.56829,-123.2761013
"2561 Jackson Avenue,Ann Arbor, MI 48103-3818,US",42.2798006,-83.7826965
"1450 S Main Street,Suite 100,Blacksburg, VA 24060-5516,US",37.2141252,-80.400932
"6531 South 27th Street,Franklin, WI 53132-9424,US",42.9255574,-87.9502711
"1245 East Putnam Ave,Greenwich, CT 06878-1522,US",41.042522,-73.577617
"9473 S. Dixie Highway,Pinecrest, FL 33156-2933,US",25.6832162,-80.3134039
"901 Bayonne Crossing Way,Bayonne, NJ 07002-5307,US",40.6606383,-74.108167
"833 24th Ave E,West Fargo, ND 58078-7871,US",46.841753,-96.884098
"2179 Highway 95,Unit A101,Bullhead City, AZ 86442-6008,US",35.1093065,-114.5985514
"3268 Crosspark Road,Suite 105,Coralville, IA 52241-3222,US",41.71896570000001,-91.60730559999999
"211 Cabela Drive,Triadelphia, WV 26059-1022,US",40.060021,-80.5996768
"450 S. Hunt Club Blvd.,Apopka, FL 32703,US",28.673452,-81.4504326
"4980 Promenade Blvd.,Santa Fe, NM 87507-5503,US",35.6189755,-106.0289808
"2415 Highway 93 North,Suite 2,Kalispell, MT 59901-2123,US",48.238051,-114.3293214
"1707 N Collins Street,Suite 125,North Arlington, TX 76011-4309,US",32.7613205,-97.09660199999999
"360 S Pickett Street,Alexandria, VA 22304-4704,US",38.807354,-77.12443
"5462 Williamsport Pike,Suite A,Martinsburg, WV 25404-6549,US",39.54289800000001,-77.90631189999999
"21180 SR 410 East,Suite 180,Bonney Lake, WA 98391-8457,US",47.1687373,-122.1484805
"300 7th Ave,Brooklyn, NY 11215-7251,US",40.6679801,-73.9809736
"1303 W. Arrowhead Road,Duluth, MN 55811-2217,US",46.82242129999999,-92.0981661
"10445 U.S. Route 36,Avon, IN 46123-7989,US",40.02995749999999,-85.17157189999999
"119 New Market Center,Boone, NC 28607-3992,US",36.218851,-81.663089
"33745 Woodward Avenue,Birmingham, MI 48009-0913,US",42.5372704,-83.2053474
"Union Station Washington D.C.,50 Massachusetts Ave NE,Lower Level-L025,Washington, DC 20002-421US",38.89832020000001,-77.00611359999999
"15260 Crossroads Pkwy,Gulfport, MS 39503-3564,US",30.4379703,-89.0943936
"4451 E. 53 St,Suite 300,Davenport, IA 52807-3046,US",41.57441300000001,-90.507363
"4817 Evergreen Way,Everett, WA 98203-2830,US",47.9534247,-122.2120529
"17550-C W. Bluemound Rd.,Suite 80,Brookfield, WI 53045-2946,US",43.03771,-88.13095
"3275 North Reserve Street,Suite E,Missoula, MT 59808-1562,US",46.8953516,-114.0412756
"7675 Carson Street,Long Beach, CA 90808-2367,US",33.83019090000001,-118.0848619
"5050 Timber Parkway South,Fargo, ND 58104-4810,US",46.8051058,-96.8274435
"471-W. Central St.,Franklin, MA 02038-2961,US",42.0890408,-71.4168352
"3362 Center Road,Suite E10,Brunswick, OH 44212-6508,US",41.237845,-81.807197
"1737 N 2000 W,Suite A,Clinton, UT 84015-8215,US",41.1388384,-112.064981
"1412 Atwood Ave,Johnston, RI 02919-4821,US",41.82074009999999,-71.4984834
"9540 West Flamingo,Las Vegas, NV 89147-5752,US",36.1155388,-115.3001955
"1831 Ximeno  Avenue,Long Beach, CA 90815-2850,US",33.7903079,-118.1401318
"831 Highway 12 West,Suite A,Starkville, MS 39759-3719,US",33.4456449,-88.8438913
"1451 E. Parks Highway,Suite 104,Wasilla, AK 99654-8285,US",61.5785668,-149.4135634
"Waddell Plaza,6290 University Dr. NW,Suite B,Huntsville, AL 35806-1791,US",34.74647119999999,-86.6830196
"23870 E. Smoky Hill Rd,Suite 20,Aurora, CO 80016-1357,US",39.5990938,-104.7103062
"3901 Fountainblue Lane,Suite 140,Lexington, KY 40513-1389,US",38.0024982,-84.5752893
"304 4th Ave. NW,Suite 1,Minot, ND 58703-3173,US",48.2401957,-101.2970092
"Relocating, , ,Concord, NUS",1.2966426,103.7763939
"5703 Lachman Ave NE,Albertville, MN 55301-3973,US",45.235067,-93.66213499999999
"1091 Gluckstadt Rd,Suite D,Gluckstadt, MS 39110-9442,US",32.516462,-90.108538
"1060 US Highway 51,Suite A-1,Madison, MS 39110-7000,US",32.4632778,-90.1097207
"120 Laconia Road,Unit 313,Tilton, NH 03276-5238,US",43.4586888,-71.5608505
"222 NE Emerson Avenue,Bend, OR 97701-7383,US",44.05531010000001,-121.3029908
"3740 Roswell Road,Atlanta, GA 30342-4417,US",33.8576361,-84.3829318
"1035 Vandercar Way,Ste. 100,Florence, KY 41042-1581,US",39.009004,-84.65164
"1745 Eglin St,Suite 120,Rapid City, SD 57701-6116,US",44.0964142,-103.1826848
"782 Warwick Avenue,Warwick, RI 02888-2675,US",41.7545163,-71.40398429999999
"The Grove,310 College Square,Newark, DE 19711-5492,US",39.6830548,-75.7336413
"2081 South College Street,Suite A,Auburn, AL 36832-5982,US",32.5650487,-85.50203549999999
"1155 Washington Pike,Bridgeville, PA 15017-2827,US",40.3687118,-80.1065517
"10340 Baltimore Street NW,Blaine, MN 55449-5155,US",45.1587099,-93.2342608
"264 Dogwood Blvd,Flowood, MS 39232-8602,US",32.3372736,-90.06297149999999
"1290 Front Street,Suite 4,Slidell, LA 70458-2000,US",30.2850168,-89.77924569999999
"1121 Unser Blvd SE,Rio Rancho, NM 87124-6372,US",35.239386,-106.6975181
"7780 US Hwy. 64,Suite 108,Bartlett, TN 38133-4065,US",35.2052858,-89.80352409999999
"Skagen Plaza next to The Rock,17309 SE 270th Place,Suite A-119,Covington, WA 98042-5432,US",47.3591801,-122.1109303
"12851 University Ave.,Ste. 200,Clive, IA 50325-8254,US",41.6009561,-93.7962111
"708 England Street,Ashland, VA 23005-2217,US",37.758802,-77.468435
"4851 E. 2nd Street,Casper, WY 82609-4256,US",42.8474101,-106.2614989
"500 Main Street,Suite 106,Belmar, NJ 07719-2175,US",40.184081,-74.023611
"15750 Panama City Beach Pkwy.,Unit 240 ,Panama City Beach, FL 32413-5434,US",30.223758,-85.86959200000001
"9120 North Tarrant Parkway,North Richland Hills, TX 76182,US",32.903286,-97.19119529999999
"5255 Library Road,Bethel Park, PA 15102-2714,US",40.3324306,-80.02168139999999
"1049 Commerce Parkway,Ashland, OH 44805,US",40.8578344,-82.270161
"1202 S. James Campbell Blvd.,Suite 7B,Columbia, TN 38401-0003,US",35.6030514,-87.0640653
"2150 West Nine Mile Rd,Suite B,Pensacola, FL 32534-9464,US",30.5346785,-87.3108154
"3611 Washington Blvd,Suite 101,Baltimore, MD 21227-1667,US",39.248185,-76.669814
"534 Myrtle Avenue,Boonton, NJ 07005-1914,US",40.908071,-74.3980912
"7925 W. Layton Ave,Greenfield, WI 53220-3710,US",42.9587405,-88.01171169999999
"6719 North May Avenue,Oklahoma City, OK 73116-3431,US",35.5400282,-97.56613340000001
"Angel Stadium of Anaheim,2000 Gene Autry Way,Anaheim, CA 92806-614US",33.800308,-117.8827321
"Wakefield Commons Shopping Center,14460-113 Falls of the Neuse Rd.,Raleigh, NC 27614-8227,US",35.7795897,-78.6381787
"2320 Bale Street,Raleigh, NC 27608-1796,US",35.8126691,-78.6268848
"7 East Main Road,Middletown, RI 02842-4911,US",41.5164353,-71.3001345
"11331 York Road,Cockeysville, MD 21030-1909,US",39.4944552,-76.6487075
"2510 S Telegraph Rd,Bloomfield Township, MI 48302-0241,US",42.6024726,-83.2902723
"7732 D Richmond Highway,Alexandria, VA 22306-2803,US",38.7479794,-77.0837983
"1433 University Drive,Suite 104,Burlington, NC 27215-8335,US",36.0702804,-79.5224933
"Gateway Shopping Center,3704 172nd St NE,Arlington, WA 98223-6336,US",48.1514344,-122.1794178
"2501 Dixie Highway, US 42,Ft. Mitchell, KY 41017-3097,US",39.0361614,-84.5604949
"15190 Isabella Drive,Big Rapids, MI 49307-8693,US",43.6901877,-85.511453
"Jackson Square,447 South Jefferson Ave.,Cookeville, TN 38501-0302,US",36.1534399,-85.50115
"756 South Main Street,Suite 110,Logan, UT 84321,US",41.7179939,-111.8348718
"85 Milltown Loop ,Unit C,Bozeman, MT 59718-5140,US",45.6765392,-111.1867479
"River Place Plaza,6007 US Route 60 East,Suite 107,BarboursvilleUS",38.1709675,-78.2816723
"2221 N. Main Street,Altus, OK 73521-1607,US",34.6625151,-99.3345142
"4 Orchard View Drive,Londonderry, NH 03053-3372,US",42.8634798,-71.3533041
"1209 NE Coronado Drive,Blue Springs, MO 64014-2928,US",39.0261755,-94.2468341
"1865 East Main Street,Suite 3,Dothan, AL 36301-3013,US",31.21845119999999,-85.36327
"Central Park Shopping Center,11109 US Hwy 15/501,Suite H,Aberdeen, NC 28315-2428,US",35.8369061,-79.08970579999999
"5901 94th Ave. North,Brooklyn Park, MN 55443-2388,US",45.1241873,-93.35725509999999
"1600 Woodbury Avenue,Portsmouth, NH 03801-3250,US",43.0883273,-70.7911781
"2228 Humes Rd,Janesville, WI 53545-0202,US",42.7189959,-88.9956371
"2124 N Flamingo Rd,Pembroke Pines, FL 33028-3501,US",26.0274523,-80.3141946
"101 Jett Blvd,Suite 200,Frankfort, KY 40601-7778,US",38.1754919,-84.81340709999999
"Somerset Shoppes,8903 Glades Road,Boca Raton, FL 33434-4074,US",26.3686198,-80.1863588
"1510 SW Vintage Parkway,Suite 200,Ankeny, IA 50023-7601,US",41.713064,-93.6204027
"333 Keahole Street,Honolulu, HI 96825-3406,US",21.2837519,-157.7094216
"3219 Duke Street,Alexandria, VA 22314-4533,US",38.8088232,-77.08659229999999
"1114 1st Street N,Suite 300,Alabaster, AL 35007-8771,US",33.256531,-86.8127907
"413 3rd Street NW,Suite 2,Great Falls, MT 59404,US",47.5122426,-111.3155798
"208 E 5th Street N,Burley, ID 83318-3410,US",42.56185809999999,-113.7915473
"1609 Wilshire Blvd,Los Angeles, CA 90017-1610,US",34.0559127,-118.2700779
"141 East Willow Street,Long Beach, CA 90806-2633,US",33.8054814,-118.1912799
"104 Rock Bridge Road,Suite 3,Dothan, AL 36303-2186,US",31.2537277,-85.43065969999999
"The Triangle Lamar/Guadalupe by Chase Bank,4601 N. Lamar,Suite 504,Austin, TX 78751-2355,US",30.3151911,-97.7357341
"2780 W. Chandler Blvd.,Suite 3,Chandler, AZ 85224-4922,US",33.3063914,-111.8910699
"409 S Central Expy,Suite 105,Anna, TX 75409-4909,US",33.3477692,-96.58492869999999
"718 South Kansas Avenue,Topeka, KS 66603-3880,US",39.0494303,-95.6737772
"7022 West Sunset Avenue,Suite 3,Springdale, AR 72762-0883,US",36.1762313,-94.2084532
"Kealanani Plaza,91-0710 Farrington Hwy.,Suite B-130,Kapolei, HI 96707-2659,US",21.3431724,-158.0728559
"39512 N. Daisy Mountain Drive,Suite 172,Anthem, AZ 85086-6062,US",33.8442581,-112.132093
"15901 Antioch Road,Overland Park, KS 66223-2924,US",38.83935640000001,-94.68541900000001
"9500 Montgomery Blvd NE,Suite 6A,Albuquerque, NM 87111-2569,US",35.1292618,-106.5338046
"2311 S. Georgia Street,Amarillo, TX 79109-1836,US",35.1901892,-101.8655499
"1132 S 450 W,Suite 103,Brigham, UT 84302-6706,US",41.4707898,-112.0272141
"473 Putnam Pike,Smithfield, RI 02828-3004,US",41.8708289,-71.53243549999999
"109 Wolf Road,Albany, NY 12205-1239,US",42.71656960000001,-73.8088681
"718 Leonard Ave,Suite E,Albemarle, NC 28001-5274,US",35.3419866,-80.17817769999999
"690 US Highway 29,Suite 125,Athens, GA 30601-1545,US",33.995043,-83.333907
"407 Highway 46 South,Dickson, TN 37055-2558,US",36.0657884,-87.3796072
"1702 S. Rangeline Road,Suite B,Joplin, MO 64804-3233,US",37.0716206,-94.4784471
"We Moved to a New Location! ,2298 Trenton Road,Suite 104,Clarksville, TN 37040-2358,US",36.5747088,-87.3172294
"1040 Stevenson Avenue,Unit L,Enumclaw, WA 98022-2991,US",47.2009514,-121.9902116
"10322 Bristow Station Drive,Suite 105,Bristow, VA 20136,US",38.7298274,-77.5477318
"19179 Bear Valley Road,Ste. 8,Apple Valley, CA 92308-2724,US",34.4703781,-117.2455426
"15830 First Avenue S.,B-104,Burien, WA 98148-3305,US",47.4610521,-122.3316731
"415 Cleveland St,Suite C,Muscatine, IA 52761-5803,US",41.4547377,-91.0256956
585 Main StreetUS,37.09024,-95.712891
"56 Chambers Bridge Road,Suite 101,Brick, NJ 08723-4148,US",40.0585761,-74.1403622
"5413 US-280,Suite 102,Hoover, AL 35242-6693,US",33.4174217,-86.6675454
"1020 Shiloh Crossing Blvd.,Suite 2,Billings, MT 59102-7337,US",45.7506303,-108.6164862
"763 Atlantic Blvd,Atlantic Beach, FL 32233-3937,US",30.3249019,-81.4087953
"395 Providence Highway,Dedham, MA 02026-1808,US",42.2499805,-71.17212049999999
"348 Winchester Street,Keene, NH 03431-3936,US",42.9233451,-72.2896015
"1713 Scottsville Road,Suite D,Bowling Green, KY 42104-5834,US",36.968315,-86.43400199999999
"3250 Fashion Center Blvd.,Christiana, DE 19702-3254,US",39.6711997,-75.6487662
"171 Freeport Road,Blawnox, PA 15238-3426,US",40.4919178,-79.86566979999999
"2618 East 10th Street,Bloomington, IN 47408-2666,US",39.1708339,-86.5008529
"6 Flagstone Drive,Unit A,Hudson, NH 03051-4904,US",42.7315179,-71.42594509999999
"Lakeside at Canyon Park,24016 Bothell Everett Hwy.,Suite B300,Bothell, WA 98021-9361,US",47.7797636,-122.219456
"McCarran International Airport,5757 Wayne Newton Blvd.,Las Vegas, NV 89111-8037,US",36.08330890000001,-115.1516874
"1 Stephen King Drive,Suite 20,Augusta, ME 04330-8167,US",44.3445824,-69.7886743
"7500 South Santa Fe Avenue,Suite 600,Oklahoma City, OK 73139-8016,US",35.391065,-97.51195
"6556 Siegen Lane,Unit 2 ,Baton Rouge, LA 70809-4163,US",30.3903483,-91.06190579999999
"55 N. Stephanie St.,Suite 110,Henderson, NV 89074-8079,US",36.033815,-115.047529
"227 Sandy Springs Place NE,Suite 102,Atlanta, GA 30328-5918,US",33.9203802,-84.38337779999999
"2801 Pine Lake Road,Suite G,Lincoln, NE 68516-6041,US",40.7386958,-96.6804688
"South Ridge Plaza,210 RHL Blvd,Charleston, WV 25309-8262,US",38.3283192,-81.715406
"Venetucci Blvd.,4451 Venetucci Blvd ,Suite 120,Colorado Springs, CO 80906-4054,US",38.7677041,-104.7842285
"143 Towne Drive,Elizabethtown, KY 42701-7497,US",37.7347633,-85.888718
"1724 S Broadway Extension,Edmond, OK 73013-4013,US",35.6361487,-97.48317089999999
"Between Mopac and Burnet,2700 West Anderson Lane,Ste. 211,Austin, TX 78757-1304,US",30.3590321,-97.7342864
"Yard 56,5601 Eastern Ave.,Unit 505,Baltimore, MD 21224-2726,US",39.2871898,-76.5480178
"331 West Parrish Lane,Suite 105,Centerville, UT 84014-1852,US",40.9211369,-111.8841066
"Grindstone Parkway,1101 Grindstone Parkway,Suite 105,Columbia, MO 65201-3757,US",38.911046,-92.325458
"4223 E. Royalton Road,Broadview Heights, OH 44147-2932,US",41.314631,-81.6576955
"1511 W. McMillan Road,Suite 170,Meridian, ID 83646-5276,US",43.6481013,-116.4128344
"175 East Altamonte Drive,Unit 1030,Altamonte Springs, FL 32701-4346,US",28.66253769999999,-81.3851712
"6025-C Burke Centre Parkway,Burke, VA 22015-3752,US",38.7879466,-77.2977089
"1404 County Road 42 W.,Burnsville, MN 55337-4721,US",44.7470142,-93.2973481
"3578 Route 611,Suite 260,Bartonsville, PA 18321-1770,US",41.0004967,-75.2712963
"7415 Corporate Blvd.,Suite 910,Baton Rouge, LA 70809-1194,US",30.431156,-91.1127638
"2476 South Oneida Street,Green Bay, WI 54304-5289,US",44.484222,-88.0701119
"2616 N Maize Rd,Suite 100,Wichita, KS 67205-7313,US",37.730444,-97.46210149999999
"4190 108th Avenue NE,Suite 100,Blaine, MN 55449,US",45.1649636,-93.1637903
"959 S IL State Route 59,Bartlett, IL 60103-1670,US",41.9749072,-88.2069938
"15614 Old Columbia Pike,Burtonsville, MD 20866-1630,US",39.1121701,-76.9352165
"6815 SW 3rd Street,Oklahoma City, OK 73128-2205,US",35.4620345,-97.63161629999999
"4756 Pacific Hwy East,Suite 130,Fife, WA 98424-2680,US",47.2427323,-122.3653296
"770D-A  Lighthouse Drive,Barnegat, NJ 08005-2373,US",39.7571903,-74.25745599999999
"4544  NE Cornell Road,Hillsboro, OR 97124-6026,US",45.5329927,-122.9350071
"227 Federal Rd,Brookfield, CT 06804-2630,US",41.444298,-73.4038629
"Lake Pine Plaza,922 Highway 64,Apex, NC 27523-7184,US",35.7452847,-78.820465
"1595 Niagara Falls Blvd,Suite 500,Amherst, NY 14228-2852,US",42.999306,-78.81963999999999
"466 B Washington Street,Brighton, MA 02135-2620,US",42.34879000000001,-71.15908999999999
"1020 Glendon Ave.,Los Angeles, CA 90024-2908,US",34.0617164,-118.4440035
"3201 Edwards Mill Rd,Raleigh, NC 27612-5385,US",35.8260501,-78.706994
"7166 W. Fairview Avenue,Boise, ID 83704-8507,US",43.6196831,-116.2713771
"489 E. IL-173,Antioch, IL 60002-9406,US",42.4668486,-88.0641361
"450 William S Canning Blvd.,Unit 9,Fall River, MA 02721-5603,US",41.67217249999999,-71.1573181
"641 North Dupont Highway,Milford, DE 19963-1098,US",38.9185471,-75.4422171
"2231 W. Dekalb St.,Suite B,Camden, SC 29020,US",34.248942,-80.64773579999999
"6450 Telegraph Rd,Suite 102,Bloomfield Hills, MI 48301-1720,US",42.54541,-83.28572
"1851 Montgomery Highway,Suite 113,Hoover, AL 35244-2505,US",33.3702098,-86.79826849999999
"10201 Martin Luther King Jr. Hwy.,Suite 150,Bowie, MD 20720-4254,US",38.955191,-76.8278744
"1900 South Main Street,Lone Pine, CA 93545-3013,US",36.5841853,-118.0578986
"Rutledge Commons Shopping Center,300 Airport Rd.,Unit 70,Arden, NC 28704-9257,US",35.451512,-82.526454
"5005 Westone Plaza Blvd.,Unit B.,Chantilly, VA 20151-4207,US",38.8702282,-77.44444829999999
"Pavillion Gateway,241 Walker Road,Chambersburg, PA 17201-3503,US",39.934448,-77.6325366
"1107 S. College Ave,Newark, DE 19713-2307,US",39.6513636,-75.7488915
"874 Boston Post Road,Guilford, CT 06437-2701,US",41.2878684,-72.6771383
"20070 Ashbrook Commons Plaza,Unit 197,Ashburn, VA 20147-5035,US",39.060448,-77.4704661
"200 Terry Lane,Unit C,Grants Pass, OR 97526-4805,US",42.4369917,-123.3040896
"25 North 32nd Street,Camp Hill, PA 17011-2918,US",40.2407937,-76.9345075
"600 Center Street,Auburn, ME 04210-6311,US",44.1239099,-70.226703
"6583 S Parker Road ,Suite 200,Centennial, CO 80016-1783,US",39.5967452,-104.8040811
"201 S Shary Rd,Suite 400,Mission, TX 78572-1010,US",26.198215,-98.287415
"119 N. Murphy Road,Murphy, TX 75094-3517,US",33.0141329,-96.61334049999999
"2124 E. Kimberly Road,Suite 150B,Davenport, IA 52807-7223,US",41.55830599999999,-90.5472771
"2065 N. Harris Boulevard,Layton, UT 84041-1655,US",41.0900185,-111.9819184
"1851 W. Traverse Parkway,Building G, Suite A-2,Lehi, UT 84043-5983,US",40.4322539,-111.8799146
"Wilders Grove Shopping Center,4121-101 New Bern Avenue,Raleigh, NC 27610-1396,US",35.8014355,-78.5645117
"1240 W Foothill Blvd.,Unit B,Azusa, CA 91702-2839,US",34.1331931,-117.9264325
"2210 FM 663,Midlothian, TX 76065-5614,US",32.4577771,-96.99445539999999
"1540 E Grand Ave.,Suite B,Arroyo Grande, CA 93420-2445,US",35.1211754,-120.6075353
"10020 Lima Road,Fort Wayne, IN 46818-9144,US",41.1745087,-85.1646998
"5105 Tuscarawas Street West,Canton, OH 44708-5015,US",40.7933877,-81.44665940000002
"550 Gallery Blvd.,Suite C,Scarborough, ME 04074-6616,US",43.6242352,-70.3414327
"2608 Central Ave SE,Albuquerque, NM 87106-3610,US",35.0805936,-106.6167358
"The Shoppes at Blue Lake,1200 Yamato Rd.,Boca Raton, FL 33431-4426,US",26.393201,-80.1130713
"595 King Street,Suite 131,Charleston, SC 29403-6944,US",32.7932474,-79.9416407
"214 N. Weber Rd.,Bolingbrook, IL 60440-1566,US",41.7016544,-88.12430739999999
"8951 Bonita Beach Road,Suite 250,Bonita Springs, FL 34135-4203,US",26.329929,-81.804356
"1229 South Willow Street,Manchester, NH 03103-4030,US",42.9599836,-71.4376126
"11995 Business Park Boulevard,Suite 101,Champlin, MN 55316-2005,US",45.1731212,-93.3907261
"8410 W. Cheyenne,Las Vegas, NV 89129-5110,US",36.2190603,-115.2769519
"3205 SW Cedar Hill Blvd,Suite 20,Beaverton, OR 97005-1347,US",45.4965836,-122.8103871
"1147 North Eola Road,Suite 103,Aurora, IL 60502-7004,US",41.779939,-88.2401094
"Centennial Hills Shopping Center,7901 W. Tropical Parkway,Suite 130,Las Vegas, NV 89149-4550,US",36.2705824,-115.2673437
"2260 Gunbarrel Road,Suite 205,Chattanooga, TN 37421-2673,US",35.0370727,-85.15123799999999
"Gosford Rd and Stockdale Hwy,200 Coffee Road,A-101,Bakersfield, CA 93309-1217,US",35.3560165,-119.0916783
"Village on Whitesburg,4800 Whitesburg Drive,Suite 20,Huntsville, AL 35802-1600,US",34.69369,-86.57011
"66 Branch Avenue,Providence, RI 02904-2737,US",41.84354829999999,-71.4092491
"1303 S. 72nd Street,Suite 109,Omaha, NE 68124-1605,US",41.2464,-96.023077
"6815 S. Emerson Ave.,Suite F,Indianapolis, IN 46237-3362,US",39.6682,-86.0818401
"10180 Lakeridge Pkwy,Suite 105,Ashland, VA 23005-8180,US",37.6855672,-77.456272
"203 N. 180th Street,Suite 102 ,Omaha, NE 68118-3565,US",41.25888,-96.19555
"Worley Street,2001 West Worley Street,Suite 100,Columbia, MO 65203-5003,US",38.9626259,-92.370036
"1670 E. Nine Mile Road,Suite B,Pensacola, FL 32514-5726,US",30.5331275,-87.2278918
"1785 Melody Ln,Greenfield, IN 46140-1192,US",39.8101008,-85.76716499999999
"Hartsfield-Jackson Atlanta Airport,Terminal C,Atlanta, GA 30324-7400,US",33.748752,-84.38768449999999
"6467 East Pacific Coast Highway,Suite E-1B,Long Beach, CA 90803-4251,US",33.7581122,-118.1079683
"Duraleigh Center,5910-119 Duraleigh Rd.,Raleigh, NC 27612-2581,US",35.860292,-78.712835
"6060 San Mateo Blvd NE,Albuquerque, NM 87109-3451,US",35.1443707,-106.5858695
"272 Robert Smalls Pkwy,Suite 340,Beaufort, SC 29906-3705,US",32.4273173,-80.7257394
"1378 N. Meridian Road,Suite 120,Kuna, ID 83634-1687,US",43.5007384,-116.393155
"27800 Juban Road,Suite 2,Denham Springs, LA 70726,US",30.4691684,-90.9177922
"4316 Veterans Memorial Boulevard,Metairie, LA 70006-5439,US",30.00396709999999,-90.1801048
"13700 East Colfax Avenue,Suite H,Aurora, CO 80011-6738,US",39.7393606,-104.8279892
"River Hills Shops,104A River Hills Road,Asheville, NC 28805-2545,US",35.573033,-82.52125
"Just North of Flamingo Rd,3900 Paradise Road,Ste. K,Las Vegas, NV 89169-0929,US",36.11856179999999,-115.1537757
"Village on the Park,2456 S Parker Rd,Suite B,Aurora, CO 80247-4378,US",39.6731131,-104.8676023
"959 South Main Street,Suite B,Cheshire, CT 06410-3418,US",41.4791499,-72.9069748
"5005 S. Cooper Street,Suite 171,Arlington, TX 76017-8600,US",32.6637869,-97.1333231
"69 Market Street,Unit 2,Williston, VT 05495-8155,US",44.44836979999999,-73.107287
"2111 Missouri Blvd.,Suite A,Jefferson City, MO 65109-4773,US",38.5808415,-92.2063479
"Pacific Place Center,10035 SW Nimbus Ave,Beaverton, OR 97008-7177,US",45.4473414,-122.7907188
"106 Frances Ln,Suite D,Beaver Dam, WI 53916-1167,US",43.4871432,-88.81241779999999
"945 W. Clairemont Avenue,Eau Claire, WI 54701-6103,US",44.79289989999999,-91.5127868
"2524 Bridge Ave,Albert Lea, MN 56007-2097,US",43.68160109999999,-93.35878629999999
"17273 Chesterfield Airport Rd,Chesterfield, MO 63005-1423,US",38.668891,-90.598396
"3571 S. Tower Rd.,Unit E,Aurora, CO 80013-5704,US",39.6517575,-104.773136
"1430 Volunteer Parkway,South Gate, Suite 9,Bristol, TN 37620-6062,US",36.559621,-82.214079
"2621 Coors Blvd. NW,Suite A,Albuquerque, NM 87120-1729,US",35.1132902,-106.7032856
"637 Canton Rd,Akron, OH 44312-2529,US",41.0463937,-81.4368368
"32 East Street,Camden, DE 19934,US",39.1067221,-75.54129370000001
"3316 SW I St.,Bentonville, AR 72712-2356,US",36.3374094,-94.2228834
"Sienna,8840 Hwy. 6,Suite 100,Missouri City, TX 77459-7101,US",29.5390906,-95.5373319
"160 E Joyce Blvd,Suite 101,Fayetteville, AR 72703-6080,US",36.1254694,-94.1545287
"1775 N Verrado Way,Suite 101,Buckeye, AZ 85396,US",33.4680791,-112.5036027
"Hillside Crossings,854 E Hillside Dr,Broken Arrow, OK 74012-2307,US",36.0673237,-95.78038339999999
"172 Bath Road,Brunswick, ME 04011-2610,US",43.9069205,-69.9184619
"2340 W. Indian Trail Rd.,Aurora, IL 60506-1570,US",41.7805233,-88.3728173
"559 S. 8th Street ,Colorado Springs, CO 80905-1807,US",38.8265775,-104.840058
"Miracle Mile ,6361 Wilshire Blvd ,Between San Vicente Blvd and Crescent Heights Blvd,Los Angeles, CA 90048-5001,US",34.0638789,-118.3673004
"Rhode Island Row,2300 Washington Pl. N.E.,Ste. 125,Washington DC, DC 20018-1054,US",38.9212517,-76.9947548
"Riverdale Village,3473 River Rapids Dr.,Coon Rapids, MN 55448-4102,US",45.2026281,-93.3538547
"940 NW Blue Parkway ,101 Lee's Summit,Lee's Summit, MO 64086-6074,US",38.931218,-94.40109
"2020 Howell Mill Road,Suite C,Atlanta, GA 30318-1732,US",33.8102082,-84.4138406
"12676 Dorsett Rd,Suite A,Maryland Heights, MO 63043-2130,US",38.71387989999999,-90.45680329999999
"1206-10 Western Avenue,Albany, NY 12203,US",42.6774343,-73.8269962
"55 Marietta Street NW,Suite 150,Atlanta, GA 30303-2824,US",33.755909,-84.391289
"2948 Kirk Road,Suite 102,Aurora, IL 60502-6010,US",41.8148672,-88.2804742
"2941 Main Street,Unit B,Glastonbury, CT 06033-1028,US",41.723593,-72.6153917
"Westlake  - Off Walsh Tarrelton ,3300 Bee Caves Road,Suite 730,Austin, TX 78746-7073,US",30.2743923,-97.79931599999999
"71808 Baker Blvd.,Baker, CA 92309-9230,US",35.2627335,-116.0802213
"15018 S.Black Bob Rd.,Olathe, KS 66062-2663,US",38.8563207,-94.76157459999999
"1435 West Lake Street,Unit B,Addison, IL 60101-1870,US",41.9463569,-88.023277
"221 North Peters Avenue,Fond du Lac, WI 54935-2225,US",43.7846324,-88.4724044
"503 W. Highway 30,Suite C,Gonzales, LA 70737-4811,US",30.2102074,-90.924489
"2565 Waukegan Road,Unit 132,Bannockburn, IL 60015-1569,US",42.1987695,-87.85852419999999
"537 Lincoln Way,Ames, IA 50010,US",42.0232205,-93.6188056
"3821B Promenade Pkwy,D'Iberville, MS 39540-5375,US",30.4562226,-88.9007008
"Point Fosdick Square Shopping Center,4819 Point Fosdick Drive NW,Gig Harbor, WA 98335-1787,US",47.3028153,-122.5773954
"4989 Factory Shops Blvd,Unit A-230,Castle Rock, CO 80108-3345,US",39.4106865,-104.8731456
"2070 N. State Route 50,Suite 600,Bradley, IL 60914-4890,US",41.188596,-87.849977
"2085 Route 88,Brick, NJ 08724-3270,US",40.07552219999999,-74.1048546
"1675 W Smith Valley Rd,Suite A-3,Greenwood, IN 46142-1593,US",39.6046426,-86.15647829999999
"660 SW 19th Street,Moore, OK 73160-5405,US",35.3191435,-97.4977143
"340 New Castle Rd,Suite 2,Butler, PA 16001-2440,US",40.8764822,-79.9459825
"4801 Bauer Farm Dr,Lawrence, KS 66049-9088,US",38.971869,-95.3052271
"1000 Kamehameha Hwy.,Suite A,Pearl City, HI 96782-2881,US",21.3964056,-157.9769478
"Across from Target,7037 N. Aurora Road,Aurora, OH 44202,US",41.3564672,-81.3902263
"10570 Pines Blvd,Suite A-101,Pembroke Pines, FL 33026-6056,US",26.0071191,-80.286878
"55 Dodge Street,Suite A208,Beverly, MA 01915-1705,US",42.5759523,-70.89066389999999
"42448 Ford Road,Canton, MI 48187-3337,US",42.3232762,-83.4591659
"1660 Main Street,Los Lunas, NM 87031-4884,US",34.8146112,-106.7535274
"228 Washington Street,Attleboro, MA 02703-5561,US",41.9242758,-71.3558092
"27351 23 Mile Rd.,Chesterfield, MI 48051-2045,US",42.6752789,-82.834926
"2916 B Fort Campbell Blvd, ,Hopkinsville, KY 42240-4902,US",36.83865249999999,-87.4787549
"28662 Dupont Blvd.,Suite 3,Millsboro, DE 19966-4794,US",38.5752175,-75.28701889999999
"571 Worcester Road,Unit D9,Framingham, MA 01701-5312,US",42.2985824,-71.4198668
"4117 Merle Hay Rd,Des Moines, IA 50310-1316,US",41.6355296,-93.697212
"2301 West Pleasant Grove Road,Suite 105,Rogers, AR 72758-7034,US",36.283599,-94.14848099999999
"6408 W. Jefferson Blvd.,Fort Wayne, IN 46804-6204,US",41.0563423,-85.225139
"1264 State Route 125,Suite 200,Amelia, OH 45102-2497,US",39.0462173,-84.2435958
"3340 North Eagle Road,Suite 101,Meridian, ID 83646-7789,US",43.6349264,-116.3535045
"9100 Alaking Court,Suite 110,Capitol Heights, MD 20743-5071,US",38.87046,-76.84953999999999
"906 E North Avenue,Belton, MO 64012-2199,US",38.8145039,-94.51887819999999
"Cordova Commons,1620 Airport Blvd,Suite 100A,Pensacola, FL 32504-8632,US",30.4810811,-87.2083227
"8100 Transit Rd,Suite 300,Amherst, NY 14221-4200,US",42.9888356,-78.6973865
"505 E. Plank Road,Altoona, PA 16602,US",40.4788479,-78.4028412
"1401 Douglas Ave.,North Providence, RI 02904-4058,US",41.8638066,-71.45306860000001
"171 McHenry Rd.,Buffalo Grove, IL 60089-1796,US",42.1563254,-87.9587694
"2 Bridge Approach Street,Bourne, MA 02532-5679,US",41.7454977,-70.58598669999999
"1885 12th Ave NW,Ardmore, OK 73401-1346,US",34.18793780000001,-97.1515364
"5324 Wadsworth Blvd.,Suite F,Arvada, CO 80002-3713,US",39.7941274,-105.0803102
"Brookfield Plaza ,2121 SW Wanamaker Rd,Suite 115,Topeka, KS 66614-5214,US",39.0284957,-95.7629547
"8797 Branch Avenue,Clinton, MD 20735-2630,US",38.7683877,-76.88971719999999
"5240 Edgewood Rd NE,Suite 600,Cedar Rapids, IA 52411-6601,US",42.0314872,-91.7007884
"24830 William P. Rosso Highway,Clinton Township, MI 48036,US",42.6293662,-82.8569845
"9974 East Grand River Ave.,Brighton, MI 48116-1924,US",42.5210651,-83.7607306
"1004-D Bunker Hill Road,Middletown, DE 19709-4702,US",39.4485323,-75.7305284
"2756 Sunrise Hwy,Bellmore, NY 11710-3639,US",40.6685123,-73.52492509999999
"20175 Eva Street,Suite F,Montgomery, TX 77356-2285,US",30.3872928,-95.6801871
"7 Bayshore Plaza,Atlantic Highlands, NJ 07716-1109,US",40.4078864,-74.034306
"10321 W. McDowell Rd.,Avondale, AZ 85392-3408,US",33.4640936,-112.2829698
"80 Morristown Road,Bernardsville, NJ 07924-2313,US",40.7204006,-74.5636559
"11875 Willow Creek Drive,Auburn, CA 95603-2525,US",38.9387516,-121.0966644
"12850 Alpharetta Highway,Suite 1000,Alpharetta, GA 30004-4246,US",34.095986,-84.278577
"602 Mantoloking Road,Brick, NJ 08723-5572,US",40.0464449,-74.1103694
"Centre Square Commons,960 Dekalb Pike,Suite210,Blue Bell, PA 19422-1810,US",40.1657838,-75.2906582
"9411 Coors Blvd.,Albuquerque, NM 87114-4007,US",35.18719,-106.6625513
"1221 Honoapiilani Highway,Suite B1,Lahaina, HI 96761-1730,US",20.8859537,-156.6836355
"1970 South Columbia Road,Suite 106,Grand Forks, ND 58201-5814,US",47.9014008,-97.06744359999999
"10117 SE Sunnyside Rd,Suite E,Clackamas, OR 97015-7708,US",45.4340144,-122.5607444
"1975 Magwood Drive,Charleston, SC 29414-5723,US",32.8133729,-80.0420582
"360 N Rogers Wells Blvd,Glasgow, KY 42141-1300,US",37.0048467,-85.926289
"163 Cheney Drive West,Suite D,Twin Falls, ID 83301-4273,US",42.5880351,-114.4812056
"39 Hazard Ave,Enfield, CT 06082-3743,US",41.9903276,-72.5781083
"4930 State Highway 30,Amsterdam, NY 12010-7567,US",42.9646315,-74.1879915
"The Old Bakery Place,1281 Bonham Road,Suite 7A,Bristol, VA 24202-5980,US",36.6150199,-82.1245734
"1960 L Madison Street,Clarksville, TN 37043-8039,US",36.5129236,-87.2950115
"McCullers Crossing,7949 Fayetteville Road,McCullers Crossing,Raleigh, NC 27603-5631,US",35.6647,-78.6975602
"W3216 County KK,Suite 103,Appleton, WI 54915,US",44.2455449,-88.3530747
"14750 Cedar Avenue,Suite 120,Apple Valley, MN 55124-4506,US",44.7346435,-93.2169766
"111 E. Katella Avenue,Suite 30,Anaheim, CA 92802-3703,US",33.803795,-117.906249
"393 Crossroads Point Blvd.,Jerome, ID 83338-5417,US",42.6507483,-114.4455996
"1634 SE Blue Parkway ,Lee's Summit, MO 64063-3191,US",38.9038637,-94.34372739999999
"5045 South Gilbert Rd.,Suite B-100,Chandler, AZ 85249,US",33.233086,-111.78919
"795 Roosevelt Trail,Windham, ME 04062-5348,US",43.8502122,-70.44935029999999
"573 Baltimore Pike,Bel Air, MD 21014-4319,US",39.5269072,-76.35215769999999
"537 Main Street,East Greenwich, RI 02818-3645,US",41.6573049,-71.45338029999999
"143 Franklin Street,Unit 8,Westerly, RI 02891-3173,US",41.3576476,-71.8096015
"22822 Sussex Highway,Suite 18,Seaford, DE 19973-5862,US",38.66529269999999,-75.5954991
"Mt. Zion Crossing,310 Mt Zion Road,Suite 1,Florence, KY 41042-3294,US",38.9568339,-84.6268393
"149 N Mall Drive,Grand ChuteUS",44.2631793,-88.4706831
"3095 Talon Drive,Suite 200,Casper, WY 82604-3394,US",42.814843,-106.3640939
"Belterra Village,165 Hargraves Drive,Suite M400,Austin, TX 78737-4813,US",30.2063329,-97.97646619999999
"2416 N Ocoee St.,Cleveland, TN 37311-3854,US",35.1777491,-84.865161
"694  McCornack Road,Exchange Bldg. 694,Schofield Barracks, HI 96857,US",21.4967578,-158.0573923
"600 E. Ben White, Suite 350,corner of IH-35Fwy and Ben White,Austin, TX 78704-7991,US",30.2196761,-97.756228
"1001 Ocean Avenue,Belmar, NJ 07719-2350,US",40.1765286,-74.01385739999999
"1691 State Highway 46 West ,New Braunfels, TX 78132-2923,US",29.71575339999999,-98.1615544
"2310 Badger Drive,Hudson, WI 54016-4203,US",44.9613757,-92.7250134
"1850 Cherokee Ave. SW,Suite C,Cullman, AL 35055-7503,US",34.1522424,-86.84136099999999
"7175 East Broad Street,Blacklick, OH 43004-8411,US",39.9824259,-82.8100712
"3901 Warden Road,Suite C,North Little Rock, AR 72116-7304,US",34.7890146,-92.22739279999999
"15530 W. 64th Avenue,Arvada, CO 80007-6874,US",39.8105464,-105.1733213
"2020 South 320th Street,Suite 3,Federal Way, WA 98003-5495,US",47.316143,-122.307076
"7011 N. State Road 7,Parkland, FL 33073-4524,US",26.31857,-80.20325
"1121-105 Falls River Ave.,Raleigh, NC 27614-6733,US",35.9059166,-78.5898373
"1620 E. Craig Road,Suite101,Las Vegas, NV 89030-3376,US",36.2402379,-115.1236025
"1823B SW Railroad Avenue,Hammond, LA 70403-6151,US",30.48379,-90.4564683
"12520 Olive Blvd.,Creve Coeur, MO 63141,US",38.6750352,-90.4636226
"945 W. 78th St.,Suite 120,Chanhassen, MN 55317,US",44.8616422,-93.5453945
"1177 S Watson Rd.,Suite 104,Buckeye, AZ 85326-3465,US",33.4360389,-112.5557174
"50 Pershing Dr.,Derby, CT 06418-1433,US",41.331289,-73.084075
"Pines Village,16030 Pines Blvd.,Pembroke Pines, FL 33027-1169,US",26.0071339,-80.3622905
"320 West State Street,Suite D,Alliance, OH 44601-4770,US",40.9011327,-81.11096649999999
"1350 Greenwich Avenue,Warwick, RI 02886-4540,US",41.6999276,-71.4591563
"245 Retail Commons Parkway,C-16A,Martinsburg, WV 25403-6178,US",39.4394027,-77.9905489
"141 Portsmouth Avenue,Unit C,Exeter, NH 03833-2105,US",42.98928,-70.930756
"3489A Chamblee Tucker Road,Atlanta, GA 30341-4421,US",33.8847898,-84.25003269999999
"10520 S. Eastern Ave.,Henderson, NV 89052-3921,US",36.00047290000001,-115.1055811
"1250 Interquest Parkway,Colorado Springs, CO 80921-4183,US",38.9916517,-104.8063618
"1257 Upper Front Street,Binghamton, NY 13905,US",42.1569386,-75.8971676
"404 E Meighan Blvd.,Suite 200,Gadsden, AL 35903-1051,US",34.01007,-85.98828999999999
"10110 South 15th Street,Bellevue, NE 68123-4036,US",41.1592947,-95.93593489999999
"4010 S Arizona Ave,Ste 1,Chandler, AZ 85248-5800,US",33.246989,-111.8417207
"4848 Route 8,Unit 5 A,Allison Park, PA 15101-2362,US",40.60016239999999,-79.9465945
"2189 Black Rock Turnpike,Fairfield, CT 06825-3244,US",41.1813894,-73.25335299999999
"140 Hookele Street,Kahului, HI 96732-3553,US",20.8756768,-156.4551853
"2515 SE Tualatin Valley Hwy.,Hillsboro, OR 97123-7935,US",45.5049578,-122.955387
"3875 West Ashley Circle,Suite 410,Charleston, SC 29414,US",32.8258969,-80.08391689999999
"2615 S. King Street,Space No. 6,Honolulu, HI 96826-3257,US",21.2913301,-157.8212259
"6844 Race Track Road,Bowie, MD 20715-3011,US",38.9833306,-76.730507
"16151 W 87th Terrace,Lenexa, KS 66219-2765,US",38.9704662,-94.7731347
"Town Center of Mililani,95-1249 Meheula Parkway,Mililani, HI 96789-1779,US",21.4537402,-158.0069756
"3003 North Delta Hwy,Suite 304,Eugene, OR 97408-7104,US",44.0949004,-123.0969431
"Brentwood Place,12003 Wilshire Boulevard,Los Angeles, CA 90025-1201,US",34.0460653,-118.4654715
"7770 Bluebonnet Blvd,Suite D,Baton Rouge, LA 70810-1692,US",30.3801628,-91.0980232
"479 Stillwater Avenue,Bangor, ME 04401-3519,US",44.826142,-68.75545679999999
"1015 3rd Street,Nampa, ID 83651-3818,US",43.578107,-116.5634849
"Dixie Hwy. & S. Main Street,Suite B,Clarkston, MI 48346-2188,US",28.3546156,-82.1922699
"Brennan Station,8111 Creedmoor Rd.,Brennan Station,Raleigh, NC 27613-4389,US",35.8985703,-78.6826355
"19426 Cantrell Road,Suite 3,Little Rock, AR 72223,US",34.8119465,-92.48909909999999
"5510 West 13400 South,Unit B-2,Herriman, UT 84096-6919,US",40.5091428,-112.0222115
"214 Ward Circle,Suite 300, Lakeside Center,Brentwood, TN 37027-7563,US",36.03121000000001,-86.802641
"277 Sea Island Parkway,Suite 107,Beaufort, SC 29907-1691,US",32.4069633,-80.6341857
"2617 Sentinel Way,Suite 100,Melissa, TX 75454-2809,US",33.284291,-96.5637069
"1053 North Irish Road,Davison, MI 48423-2208,US",43.021091,-83.5563741
"325 S Arizona Avenue,Suite 3,Chandler, AZ 85225-7524,US",33.2983147,-111.8411053
"4908 S Louise Ave,Sioux Falls, SD 57106-2216,US",43.500739,-96.77043739999999
"718 Grand Central Ave.,Vienna, WV 26105-2144,US",39.3060441,-81.5502581
"1204 N Interstate Dr, Norman, OK 73072,Norman, OK 73069,US",35.2344971,-97.4864004
"905 South Point Road,Suite H,Belmont, NC 28012-9520,US",35.22455780000001,-81.0360446
"6985 Park Centre Drive,Cottonwood Heights, UT 84121-6648,US",40.62409,-111.8574081
"Boynton Shops,2260 Woolbright Rd.,Boynton Shops,Boynton Beach, FL 33426-6214,US",26.5127072,-80.0890448
"1624 S. Broadway Ave.,Suite120,Boise, ID 83706-3802,US",43.5923249,-116.1933035
"200 West Peace Street,Raleigh, NC 27603-1184,US",35.7886872,-78.6418685
"1067 Tiger Boulevard,Suite 40,Clemson, SC 29631-2924,US",34.69178,-82.8362516
"33130 US Hwy 19 N,Palm Harbor, FL 34684-3127,US",28.0730817,-82.73967669999999
"120 Tri City Road,Somersworth, NH 03878-1325,US",43.2283186,-70.8824073
"1120 Carlisle Road,Camp Hill, PA 17011-6202,US",40.2307504,-76.893273
"261 Atwood Ave,Cranston, RI 02920,US",41.7828051,-71.4722142
"4260 Long Beach Blvd,Long Beach, CA 90807-2004,US",33.8358518,-118.1888044
"4776 Cornell Road,Cornell Plaza,Blue Ash, OH 45241-2414,US",39.2714563,-84.37410369999999
"8680 W. Warm Springs Road ,Suite 115,Las Vegas, NV 89148-1826,US",36.056087,-115.281213
"Cambridge Square Shopping Center,2036 Johnson Ferry Road,Suite F,Atlanta, GA 30319-2500,US",33.8945638,-84.3305267
"Corner of Rainbow Blvd and Oakey Blvd,1770 S. Rainbow Blvd.,Suite 120,Las Vegas, NV 89146-0005,US",36.15223599999999,-115.2426339
"4201 West Green Oaks Blvd,Arlington, TX 76016-4454,US",32.6805186,-97.1955703
"301 E Ocean Blvd,Suite 155,Long Beach, CA 90802-8811,US",33.7679379,-118.1889636
"18165 Highway 18,Suite 3,Apple Valley, CA 92307-2201,US",34.540176,-117.26718
"50 N 1200 East,Suite 110,Lehi, UT 84043-9517,US",40.3889238,-111.8301926
"983 Beards Hill Road,Suite H,Aberdeen, MD 21001-1734,US",39.5250428,-76.1831965
"641 Farmington Ave,Bristol, CT 06010-3953,US",41.69124,-72.9220984
"1305 Veterans Parkway,Suite 200,Clarksville, IN 47129-7788,US",38.32933,-85.75993
"29660 Hwy 181,Daphne, AL 36526,US",30.6582314,-87.8513498
"383 West Army Trail Road,Suite 700,Bloomingdale, IL 60108-1480,US",41.93989860000001,-88.1139762
"1221 Chapin Road,Suite F,Chapin, SC 29036-7142,US",34.1659949,-81.351612
"5665 Atlanta Highway,Suite 105,Alpharetta, GA 30004-3932,US",34.1443535,-84.25000179999999
"420 Pinnacle Parkway,Bristol , TN 37620-8776,US",36.5922846,-82.2604092
"6400 Holly Avenue,Suite A,Albuquerque, NM 87113-2549,US",35.1755817,-106.5764536
"3323 US Highway 190,Mandeville, LA 70471-3141,US",30.3929476,-90.08382069999999
"741 W 23rd Street,Panama City, FL 32405-3924,US",30.1890692,-85.67199409999999
"2070 S Mckenzie Street,Foley, AL 36535-1751,US",30.3851318,-87.6840038
"12113 Manchester Rd,Des Peres, MO 63131-4310,US",38.6034172,-90.43769979999999
"6518 Goodman Road,Suite 110,Olive Branch, MS 38654-9809,US",34.962978,-89.8746185
"8235 E 96th Street,Indianapolis, IN 46256-1089,US",39.9256084,-86.02256039999999
"1175 Meridian Blvd.,Suite 110,Franklin, TN 37067-6349,US",35.949999,-86.807834
"525 Granville Square,Morgantown, WV 26501-1805,US",39.6397091,-79.9992953
"18598 Coastal Highway,Unit 2,Rehoboth Beach, DE 19971-6142,US",38.7363699,-75.1415634
"2345 Via Inspirada Parkway,Suite 120,Henderson, NV 89044-1849,US",35.9420466,-115.1323581
"4025C  Hempstead Turnpike,Suite 3,Bethpage, NY 11714-5602,US",40.725763,-73.48716399999999
"1211 North DuPont Hwy,Dover, DE 19901-2250,US",39.1893129,-75.539361
"270 Emily Drive,Clarksburg, WV 26301-5500,US",39.2751503,-80.28361249999999
"920 15th Street SW,Auburn, WA 98001-6588,US",47.2952993,-122.2404518
"Liberty Square Shopping Center,6 Liberty Plaza,Hurricane, WV 25526-8853,US",38.4577738,-81.9324654
"1019 Fording Island Road,Suite 105-G,Bluffton, SC 29910-7512,US",32.2571859,-80.8489147
"5001 O Street ,Ste. B,Lincoln, NE 68510-1937,US",40.8130368,-96.65101299999999
"1780 N Congress Ave,Ste. 700,Boynton Beach, FL 33426-8267,US",26.5429343,-80.0902483
